City_ID,City,Lat,Lng,Max Temp,Humidity,Cloudiness,Wind Speed,Country,Date
0,barrow,71.2906,-156.7887,-27.99,76,100,2.57,US,1675612729
1,mataura,-46.1927,168.8643,14.83,75,99,3.87,NZ,1675612729
2,kapaa,22.0752,-159.319,22.18,90,100,4.12,US,1675612730
3,la ronge,55.1001,-105.2842,-4.86,93,100,3.6,CA,1675612730
4,ushtobe,45.2514,77.9838,0.43,98,100,1.8,KZ,1675612731
5,punta arenas,-53.15,-70.9167,10.06,57,20,13.89,CL,1675612721
6,qaanaaq,77.484,-69.3632,-19.55,66,0,4.05,GL,1675612731
7,jamestown,42.097,-79.2353,6.77,52,0,6.69,US,1675612731
8,mahebourg,-20.4081,57.7,27.36,89,40,1.54,MU,1675612732
9,pontes e lacerda,-15.2261,-59.3353,29.46,64,93,2.1,BR,1675612732
10,saskylakh,71.9167,114.0833,-39.56,100,100,1.89,RU,1675612732
11,bolkhov,53.4433,36.0044,-3.39,96,100,3.17,RU,1675612733
12,torquay,50.4638,-3.5143,9.71,71,89,1.34,GB,1675612733
13,kautokeino,69.0125,23.0412,-7.7,93,100,0.99,NO,1675612734
14,karratha,-20.7377,116.8463,31.37,54,13,6.63,AU,1675612734
15,albany,42.6001,-73.9662,1.0,57,100,2.24,US,1675612722
16,lhokseumawe,5.1801,97.1507,25.04,86,100,1.48,ID,1675612735
17,carnarvon,-24.8667,113.6333,25.13,77,2,8.29,AU,1675612735
18,phalodi,27.1333,72.3667,22.38,21,0,4.54,IN,1675612735
19,saint-philippe,-21.3585,55.7679,27.77,86,85,4.64,RE,1675612736
20,upernavik,72.7868,-56.1549,-26.15,97,99,2.24,GL,1675612617
21,esna,25.2934,32.554,20.01,23,93,2.61,EG,1675612736
22,atuona,-9.8,-139.0333,25.76,75,8,7.92,PF,1675612736
23,saint george,37.1041,-113.5841,1.33,75,0,1.54,US,1675612737
24,husavik,66.0449,-17.3389,7.34,79,100,11.65,IS,1675612737
25,tahoua,14.8888,5.2692,36.99,11,64,1.03,NE,1675612738
26,santa rita,-7.1139,-34.9781,31.37,62,40,4.12,BR,1675612738
27,miyang,24.4042,103.4428,12.7,47,13,1.49,CN,1675612738
28,viedma,-40.8135,-62.9967,36.27,15,69,7.78,AR,1675612516
29,port elizabeth,-33.918,25.5701,27.28,89,75,9.26,ZA,1675612739
30,busselton,-33.65,115.3333,18.78,86,5,7.05,AU,1675612739
31,meulaboh,4.1363,96.1285,23.77,89,98,1.49,ID,1675612739
32,college,64.8569,-147.8028,-26.03,73,40,0.0,US,1675612740
33,castro,-24.7911,-50.0119,25.36,55,68,3.76,BR,1675612740
34,rikitea,-23.1203,-134.9692,25.83,76,6,7.17,PF,1675612740
35,guajara,-2.9667,-57.6667,29.09,69,87,2.8,BR,1675612741
36,gayeri,12.6497,0.4931,36.36,7,100,3.02,BF,1675612741
37,andenes,69.3143,16.1194,3.99,60,75,10.8,NO,1675612742
38,ribeira grande,38.5167,-28.7,18.22,82,20,5.36,PT,1675612742
39,independence,39.0911,-94.4155,7.84,65,0,3.09,US,1675612744
40,nhulunbuy,-12.2333,136.7667,25.34,88,97,0.0,AU,1675612560
41,merauke,-8.4667,140.3333,25.49,88,100,2.56,ID,1675612745
42,bethel,41.3712,-73.414,4.45,50,0,6.69,US,1675612522
43,thinadhoo,0.5333,72.9333,27.14,69,63,4.02,MV,1675612746
44,victoria,22.2855,114.1577,19.1,87,81,1.34,HK,1675612748
45,richards bay,-28.783,32.0377,25.59,76,11,4.09,ZA,1675612749
46,turayf,31.6725,38.6637,12.14,37,0,9.26,SA,1675612750
47,vaini,-21.2,-175.2,26.34,77,51,4.1,TO,1675612751
48,hanzhong,33.0728,107.0303,9.38,59,81,0.28,CN,1675612752
49,kosino,58.4127,51.2782,-14.21,99,95,1.99,RU,1675612753
50,saldanha,-33.0117,17.9442,26.03,81,35,9.58,ZA,1675612753
51,torbay,47.6666,-52.7314,-3.01,75,40,11.32,CA,1675612754
52,yellowknife,62.456,-114.3525,-29.71,76,75,2.57,CA,1675612622
53,tiksi,71.6872,128.8694,-34.13,100,100,1.42,RU,1675612755
54,komsomolskiy,40.4272,71.7189,4.4,93,100,0.0,UZ,1675612756
55,ponta do sol,32.6667,-17.1,18.4,44,27,1.54,PT,1675612757
56,sistranda,63.7256,8.834,2.98,59,87,9.25,NO,1675612757
57,tuatapere,-46.1333,167.6833,14.29,92,99,4.22,NZ,1675612758
58,turukhansk,65.8167,87.9833,-15.86,98,98,1.33,RU,1675612758
59,mikhaylov,54.2292,39.0186,-3.21,95,100,2.01,RU,1675612759
60,tinde,-3.8833,33.2,22.68,65,64,3.14,TZ,1675612760
61,bambous virieux,-20.3428,57.7575,27.34,89,40,1.54,MU,1675612761
62,hobart,-42.8794,147.3294,14.92,76,94,4.63,AU,1675612686
63,alofi,-19.0595,-169.9187,24.94,94,100,1.54,NU,1675612762
64,kenora,49.8167,-94.4337,-15.46,85,75,4.12,CA,1675612576
65,cidreira,-30.1811,-50.2056,27.62,42,17,6.97,BR,1675612763
66,batemans bay,-35.7167,150.1833,16.52,82,90,1.32,AU,1675612763
67,gold coast,-28.0,153.4333,23.89,87,75,1.54,AU,1675612764
68,rio brilhante,-21.8019,-54.5464,30.76,50,85,1.18,BR,1675612765
69,ushuaia,-54.8,-68.3,5.81,75,75,12.35,AR,1675612766
70,omboue,-1.5746,9.2618,27.55,78,96,3.36,GA,1675612766
71,longyearbyen,78.2186,15.6401,-6.09,73,40,20.06,SJ,1675612767
72,puerto ayora,-0.7393,-90.3518,28.98,90,52,4.02,EC,1675612767
73,north bend,43.4065,-124.2243,8.25,93,100,5.66,US,1675612768
74,kaitangata,-46.2817,169.8464,13.37,95,100,2.49,NZ,1675612768
75,cape town,-33.9258,18.4232,24.51,74,20,10.29,ZA,1675612636
76,cocobeach,1.0002,9.5823,28.47,72,37,4.35,GA,1675612769
77,sorland,67.667,12.6934,3.92,54,95,9.86,NO,1675612769
78,wetteren,50.9934,3.8721,8.61,73,11,6.81,BE,1675612770
79,saint-georges,12.0564,-61.7485,27.82,74,75,8.23,GD,1675612547
80,kenai,60.5544,-151.2583,-6.06,93,100,9.77,US,1675612770
81,russell,32.3502,-85.1999,12.23,62,75,0.0,US,1675612770
82,kodiak,57.79,-152.4072,1.73,93,100,13.89,US,1675612771
83,namibe,-15.1961,12.1522,23.92,71,60,4.59,AO,1675612771
84,severo-kurilsk,50.6789,156.125,-4.21,79,95,3.64,RU,1675612772
85,georgetown,5.4112,100.3354,24.97,94,40,1.54,MY,1675612664
86,alice springs,-23.7,133.8833,15.75,72,1,1.03,AU,1675612772
87,bluff,-46.6,168.3333,16.16,71,99,9.72,NZ,1675612772
88,butaritari,3.0707,172.7902,26.89,82,81,8.08,KI,1675612773
89,mar del plata,-38.0023,-57.5575,28.86,52,0,6.69,AR,1675612675
90,tenenkou,14.4572,-4.9169,34.27,8,4,4.21,ML,1675612773
91,akyab,20.15,92.9,21.66,56,7,6.39,MM,1675612774
92,pangnirtung,66.1451,-65.7125,-33.78,97,100,0.6,CA,1675612774
93,vostok,46.4856,135.8833,-19.75,99,100,1.23,RU,1675612774
94,port blair,11.6667,92.75,28.02,78,40,1.03,IN,1675612775
95,thompson,55.7435,-97.8558,-21.91,84,100,1.03,CA,1675612742
96,hithadhoo,-0.6,73.0833,27.34,70,60,5.01,MV,1675612775
97,atar,20.5169,-13.0499,25.78,13,31,4.88,MR,1675612776
98,gemena,3.25,19.7667,35.62,17,8,1.33,CD,1675612776
99,winneba,5.3511,-0.6231,29.38,70,100,5.69,GH,1675612776
100,severnyy,50.677,36.5532,-3.98,85,100,4.02,RU,1675612777
101,iskateley,67.6803,53.1512,-17.52,99,99,2.76,RU,1675612777
102,dingle,10.9995,122.6711,23.55,92,100,3.5,PH,1675612778
103,mayo,38.8876,-76.5119,7.32,47,0,6.17,US,1675612778
104,mehamn,71.0357,27.8492,-4.03,74,100,5.66,NO,1675612778
105,coos bay,43.3665,-124.2179,8.29,93,100,5.66,US,1675612779
106,jacala,21.0167,-99.1833,15.6,39,3,1.63,MX,1675612779
107,lagoa,39.05,-27.9833,15.24,83,77,9.65,PT,1675612780
108,maun,-19.9833,23.4167,23.24,79,100,1.7,BW,1675612780
109,mildura,-34.2,142.15,16.71,64,0,3.21,AU,1675612780
110,porto novo,6.4965,2.6036,29.92,67,100,5.18,BJ,1675612781
111,gat,31.61,34.7642,15.38,7,16,3.52,IL,1675612781
112,springbok,-29.6643,17.8865,27.24,32,37,7.74,ZA,1675612782
113,khatanga,71.9667,102.5,-32.86,93,98,2.49,RU,1675612556
114,leningradskiy,69.3833,178.4167,-32.92,99,100,2.07,RU,1675612782
115,clayton,33.5335,-84.3666,9.94,62,75,1.54,US,1675612519
116,hermanus,-34.4187,19.2345,20.45,79,99,3.58,ZA,1675612782
117,talnakh,69.4865,88.3972,-14.33,96,100,1.76,RU,1675612783
118,beloha,-25.1667,45.05,23.34,83,100,7.16,MG,1675612783
119,vila velha,-20.3297,-40.2925,34.97,64,0,6.17,BR,1675612783
120,berlevag,70.8578,29.0864,-4.0,73,100,4.12,NO,1675612784
121,sao filipe,14.8961,-24.4956,22.91,56,6,5.73,CV,1675612784
122,terra santa,-2.1042,-56.4869,31.07,55,87,2.6,BR,1675612784
123,cayenne,4.9333,-52.3333,23.02,94,75,4.12,GF,1675612785
124,chokurdakh,70.6333,147.9167,-38.43,100,97,1.77,RU,1675612785
125,new norfolk,-42.7826,147.0587,14.72,64,94,0.45,AU,1675612786
126,dunedin,-45.8742,170.5036,19.33,42,65,2.24,NZ,1675612786
127,domna,51.8971,113.1573,-15.91,66,13,2.0,RU,1675612786
128,kamenka,51.3223,42.7678,-11.85,98,74,1.98,RU,1675612787
129,fairbanks,64.8378,-147.7164,-26.02,73,0,0.0,US,1675612645
130,sinnamary,5.3833,-52.95,25.39,87,99,6.58,GF,1675612788
131,antofagasta,-23.65,-70.4,24.6,67,1,3.68,CL,1675612788
132,grindavik,63.8424,-22.4338,8.97,100,100,13.38,IS,1675612789
133,garissa,-0.4536,39.6401,32.79,25,81,3.49,KE,1675612789
134,port macquarie,-31.4333,152.9167,21.05,80,37,1.04,AU,1675612627
135,darhan,49.4867,105.9228,-19.82,97,93,1.06,MN,1675612790
136,chuy,-33.6971,-53.4616,25.52,52,13,5.0,UY,1675612790
137,brae,60.3964,-1.353,7.15,81,100,9.73,GB,1675612790
138,oga,46.4631,10.347,0.38,88,3,2.92,IT,1675612791
139,hilo,19.7297,-155.09,22.57,92,28,1.34,US,1675612791
140,rosetta,31.4044,30.4164,16.09,49,63,9.07,EG,1675612791
141,biak,-0.9131,122.8766,24.52,82,84,2.67,ID,1675612792
142,muscat,23.6139,58.5922,22.63,62,13,2.86,OM,1675612792
143,avarua,-21.2078,-159.775,27.03,83,75,6.17,CK,1675612793
144,shimoda,34.6667,138.95,4.5,70,33,2.99,JP,1675612793
145,prado,-17.3411,-39.2208,29.91,62,2,6.98,BR,1675612794
146,lebu,-37.6167,-73.65,18.93,76,30,7.26,CL,1675612794
147,mecca,21.4267,39.8261,24.5,51,62,4.54,SA,1675612795
148,ridgecrest,35.6225,-117.6709,12.05,45,75,5.36,US,1675612700
149,tuktoyaktuk,69.4541,-133.0374,-43.0,66,0,0.0,CA,1675612795
150,ternate,0.8,127.4,25.23,85,100,2.69,ID,1675612796
151,yabrud,33.9674,36.6574,3.41,89,92,9.35,SY,1675612796
152,te anau,-45.4167,167.7167,13.72,92,100,3.87,NZ,1675612751
153,laguna,38.421,-121.4238,10.16,87,20,4.63,US,1675612722
154,mzimba,-11.9,33.6,19.28,91,97,2.64,MW,1675612797
155,ust-nera,64.5667,143.2,-35.34,100,100,0.24,RU,1675612797
156,east london,-33.0153,27.9116,28.52,69,0,6.69,ZA,1675612797
157,deputatskiy,69.3,139.9,-30.42,99,100,1.54,RU,1675612798
158,birjand,32.8663,59.2211,7.26,33,0,3.09,IR,1675612608
159,sabya,17.1495,42.6254,27.79,64,100,3.77,SA,1675612798
160,gizo,-8.103,156.8419,26.2,90,100,7.41,SB,1675612798
161,bredasdorp,-34.5322,20.0403,23.45,64,86,5.82,ZA,1675612799
162,honiara,-9.4333,159.95,25.29,97,100,3.26,SB,1675612799
163,meadow lake,34.8014,-106.5436,10.24,37,12,1.33,US,1675612799
164,lompoc,34.6391,-120.4579,12.1,87,100,8.05,US,1675612800
165,moron,-34.6534,-58.6198,30.57,44,0,1.77,AR,1675612800
166,alagir,43.0422,44.2222,-2.7,86,98,1.35,RU,1675612801
167,egvekinot,66.3167,-179.1667,-29.71,88,100,4.89,RU,1675612807
168,port alfred,-33.5906,26.891,25.1,84,7,2.24,ZA,1675612810
169,anadyr,64.75,177.4833,-33.72,75,0,5.0,RU,1675612826
170,hasaki,35.7333,140.8333,3.22,76,85,4.68,JP,1675612829
171,porbandar,21.6422,69.6093,22.08,57,9,5.38,IN,1675612835
172,shwebo,22.5667,95.7,21.93,31,29,2.48,MM,1675612835
173,rosignano marittimo,43.4079,10.4729,10.07,58,33,6.82,IT,1675612836
174,kabare,-2.4683,28.8242,18.94,83,43,1.21,CD,1675612762
175,plettenberg bay,-34.0527,23.3716,23.53,75,44,3.84,ZA,1675612837
176,aykhal,66.0,111.5,-38.57,100,47,1.15,RU,1675612838
177,nemuro,43.3236,145.575,-4.76,79,23,4.24,JP,1675612839
178,paamiut,61.994,-49.6678,-9.05,82,100,5.76,GL,1675612840
179,dikson,73.5069,80.5464,-20.2,97,100,0.94,RU,1675612840
180,buritica,6.7187,-75.9073,25.22,54,53,0.38,CO,1675612840
181,gangapur,26.4833,76.7167,20.02,33,0,1.95,IN,1675612841
182,cururupu,-1.8283,-44.8683,28.17,77,85,3.15,BR,1675612565
183,dakar,14.6937,-17.4441,31.49,53,0,7.2,SN,1675612842
184,cherskiy,68.75,161.3,-40.94,100,100,2.18,RU,1675612842
185,luderitz,-26.6481,15.1594,21.68,66,14,13.07,NA,1675612842
186,milkovo,54.7167,158.6167,-21.76,99,100,0.76,RU,1675612843
187,kholodnyy,62.7167,147.95,-35.77,100,94,1.4,RU,1675612844
188,tezu,27.9167,96.1667,17.09,36,3,2.01,IN,1675612844
189,nanortalik,60.1432,-45.2371,-4.18,50,99,6.14,GL,1675612845
190,sioux lookout,50.1001,-91.917,-13.96,78,100,2.06,CA,1675612666
191,beringovskiy,63.05,179.3167,-28.69,93,99,5.3,RU,1675612845
192,cabo san lucas,22.8909,-109.9124,22.01,56,1,0.12,MX,1675612846
193,nabire,-3.3667,135.4833,24.32,94,100,1.28,ID,1675612846
194,cockburn town,21.4612,-71.1419,26.98,65,40,8.75,TC,1675612846
195,noyabrsk,63.1994,75.4507,-19.25,100,99,1.8,RU,1675612847
196,narsaq,60.9167,-46.05,-7.88,83,99,1.96,GL,1675612847
197,saryg-sep,51.5,95.6,-20.39,100,100,1.05,RU,1675612848
198,ta khmau,11.4833,104.95,28.03,78,20,1.03,KH,1675612848
199,miles city,46.4083,-105.8406,-2.46,80,0,5.14,US,1675612706
200,ivanteyevka,55.9711,37.9208,-2.19,96,100,1.89,RU,1675612849
201,awbari,26.5921,12.7805,17.16,29,12,5.67,LY,1675612849
202,sinop,41.7711,34.8709,1.21,94,91,1.1,TR,1675612849
203,soloneshnoye,51.6544,84.3197,-9.63,98,98,1.68,RU,1675612850
204,nome,64.5011,-165.4064,-14.73,91,57,3.21,US,1675612850
205,katobu,-4.9408,122.5276,24.3,94,100,1.66,ID,1675612851
206,tateyama,34.9833,139.8667,9.96,75,7,2.26,JP,1675612851
207,matara,5.9485,80.5353,24.71,90,100,0.82,LK,1675612851
208,coahuayana,18.7333,-103.6833,28.94,31,0,0.8,MX,1675612852
209,esperance,-33.8667,121.9,20.53,66,35,9.71,AU,1675612852
210,hualmay,-11.0964,-77.6139,25.12,69,48,3.76,PE,1675612853
211,sao paulo de olivenca,-3.3783,-68.8725,22.64,99,100,0.73,BR,1675612853
212,merta,26.65,74.0333,20.43,29,0,1.91,IN,1675612853
213,tautira,-17.7333,-149.15,27.69,73,88,6.65,PF,1675612854
214,asau,46.4333,26.4,-4.29,86,94,2.71,RO,1675612854
215,marechal candido rondon,-24.5561,-54.0567,28.73,44,54,1.99,BR,1675612855
216,seoul,37.5683,126.9778,-0.31,90,0,2.06,KR,1675612634
217,waipawa,-41.4122,175.5153,17.88,79,91,9.03,NZ,1675612856
218,ust-omchug,61.15,149.6333,-37.11,100,78,1.49,RU,1675612856
219,pochutla,15.7432,-96.4661,23.9,43,0,1.99,MX,1675612856
220,gouyave,12.1646,-61.7296,27.43,74,75,8.23,GD,1675612857
221,bucerias,20.75,-105.3333,24.97,49,4,1.75,MX,1675612857
222,ullapool,57.8987,-5.1604,9.08,62,98,4.22,GB,1675612858
223,riverton,40.5219,-111.9391,6.36,51,100,9.77,US,1675612653
224,pedernales,18.0384,-71.744,29.05,53,6,2.09,DO,1675612858
225,katsuura,35.1333,140.3,9.17,80,23,2.15,JP,1675612716
226,chapada dos guimaraes,-15.4606,-55.7497,26.81,66,97,1.08,BR,1675612859
227,atasu,48.6814,71.6433,-7.57,97,98,2.47,KZ,1675612860
228,copperas cove,31.1241,-97.9031,14.1,89,0,2.06,US,1675612801
229,olafsvik,64.8945,-23.7142,5.66,93,91,8.38,IS,1675612860
230,nioro,13.35,-15.75,35.78,7,69,2.9,GM,1675612861
231,san patricio,28.017,-97.5169,19.95,78,0,1.21,US,1675612862
232,iqaluit,63.7506,-68.5145,-33.15,66,75,0.0,CA,1675612862
233,pran buri,12.3847,99.9098,24.3,87,8,2.67,TH,1675612863
234,airai,-8.9266,125.4092,15.97,94,100,0.67,TL,1675612863
235,puerto escondido,15.85,-97.0667,28.52,47,0,2.33,MX,1675612818
236,randudongkal,-7.0981,109.3243,24.27,89,100,0.07,ID,1675612864
237,oranjemund,-28.55,16.4333,19.88,79,4,9.8,NA,1675612783
238,nikolskoye,59.7035,30.7861,-6.78,86,100,3.24,RU,1675612865
239,manjeri,11.1167,76.1167,26.38,73,20,2.57,IN,1675612866
240,mega,4.05,38.3,23.29,14,17,5.5,ET,1675612866
241,sabha,27.0377,14.4283,16.93,30,4,6.2,LY,1675612866
242,sao joao da barra,-21.6403,-41.0511,33.05,69,15,3.13,BR,1675612598
243,melo,-32.3667,-54.1833,27.63,42,79,3.99,UY,1675612867
244,atlantic city,39.3643,-74.4229,7.85,56,0,5.14,US,1675612805
245,san quintin,30.4833,-115.95,14.52,75,0,4.79,MX,1675612868
246,pombia,45.653,8.6336,8.59,52,0,4.12,IT,1675612868
247,lata,40.1629,-8.3327,17.12,42,0,3.12,PT,1675612869
248,guarapari,-20.6667,-40.4975,33.83,66,3,3.86,BR,1675612870
249,kirakira,-10.4544,161.9205,25.44,94,100,3.33,SB,1675612872
250,mehran,33.1222,46.1646,14.32,42,21,6.84,IR,1675612874
251,madang,-5.2246,145.7966,24.41,92,100,3.15,PG,1675612878
252,guasdualito,7.2424,-70.7324,27.98,65,40,4.12,VE,1675612880
253,cotonou,6.3654,2.4183,28.72,77,100,6.45,BJ,1675612884
254,hajipur,25.6833,85.2167,19.99,77,0,1.03,IN,1675612842
255,tazovskiy,67.4667,78.7,-23.09,100,52,3.6,RU,1675612890
256,puerto quijarro,-17.7833,-57.7667,30.94,53,99,1.56,BO,1675612890
257,itoman,26.1247,127.6694,20.01,83,100,3.6,JP,1675612891
258,dalbandin,28.8947,64.4101,17.4,30,0,5.61,PK,1675612892
259,porto santo,33.072,-16.3415,17.21,63,40,6.17,PT,1675612893
260,saint anthony,45.0205,-93.218,-3.39,79,62,1.34,US,1675612838
261,batticaloa,7.7102,81.6924,25.33,81,100,4.79,LK,1675612893
262,fairlie,55.756,-4.8556,7.35,81,88,1.79,GB,1675612893
263,vincennes,48.85,2.4333,9.22,61,40,5.66,FR,1675612681
264,xicotencatl,23.0167,-98.8833,19.83,51,0,0.96,MX,1675612894
265,marsala,37.7966,12.4352,10.97,66,20,6.17,IT,1675612895
266,vanavara,60.34,102.2797,-18.07,99,100,0.81,RU,1675612895
267,beira,-19.8436,34.8389,31.05,55,20,4.63,MZ,1675612895
268,abatskoye,56.2875,70.4555,-18.18,99,100,1.72,RU,1675612896
269,bulawayo,-20.15,28.5833,22.54,59,100,2.38,ZW,1675612689
270,palmer,42.1584,-72.3287,5.36,47,99,3.13,US,1675612896
271,bengkulu,-3.8004,102.2655,24.11,89,99,2.92,ID,1675612897
272,ilulissat,69.2167,-51.1,-20.87,96,100,2.43,GL,1675612897
273,the valley,18.217,-63.0578,27.12,69,40,8.23,AI,1675612770
274,lumajang,-8.1335,113.2248,23.39,87,100,0.44,ID,1675612897
275,cangucu,-31.395,-52.6756,23.56,64,90,4.06,BR,1675612606
276,san francisco,37.7749,-122.4194,11.29,85,75,6.69,US,1675612683
277,klaksvik,62.2266,-6.589,7.51,90,100,14.84,FO,1675612898
278,copiapo,-27.3667,-70.3333,23.83,41,69,3.55,CL,1675612899
279,lavrentiya,65.5833,-171.0,-20.5,95,100,3.66,RU,1675612899
280,qunduz,36.729,68.857,11.19,52,100,1.48,AF,1675612900
281,anito,12.4497,125.2886,25.1,88,87,4.99,PH,1675612900
282,kropotkin,45.4375,40.5756,3.21,67,100,4.35,RU,1675612900
283,groningen,53.25,6.75,7.79,79,20,6.69,NL,1675612901
284,broome,42.2506,-75.833,2.79,57,0,4.12,US,1675612901
285,jackson,42.4165,-122.8345,5.02,86,100,0.96,US,1675612819
286,vila franca do campo,37.7167,-25.4333,17.23,69,0,3.47,PT,1675612903
287,ambon,-3.6954,128.1814,24.08,94,75,1.54,ID,1675612903
288,dingzhou,38.5131,114.9956,-0.94,40,4,2.9,CN,1675612903
289,makakilo city,21.3469,-158.0858,22.23,83,75,0.0,US,1675612885
290,faanui,-16.4833,-151.75,27.47,74,53,6.56,PF,1675612904
291,ancud,-41.8697,-73.8203,17.69,82,42,3.82,CL,1675612904
292,adrar,20.5022,-10.0711,22.59,17,60,5.23,MR,1675612905
293,magdagachi,53.45,125.8,-29.43,100,45,1.13,RU,1675612905
294,rio verde de mato grosso,-18.9181,-54.8442,28.47,68,91,2.4,BR,1675612906
295,geraldton,-28.7667,114.6,23.23,73,100,4.63,AU,1675612906
296,morondava,-20.2833,44.2833,27.58,77,0,3.72,MG,1675612907
297,tasiilaq,65.6145,-37.6368,-2.91,81,100,10.14,GL,1675612907
298,mount gambier,-37.8333,140.7667,11.27,94,39,1.74,AU,1675612908
299,sitka,57.0531,-135.33,1.94,87,100,2.06,US,1675612909
300,saint-francois,46.4154,3.9054,8.69,73,75,6.69,FR,1675612909
301,kununurra,-15.7667,128.7333,25.99,94,75,0.0,AU,1675612910
302,takoradi,4.8845,-1.7554,29.24,71,95,6.15,GH,1675612910
303,ca mau,9.1769,105.15,23.97,80,51,2.7,VN,1675612910
304,nanzhou,29.3596,112.4024,6.54,82,92,1.84,CN,1675612911
305,port augusta,-32.5,137.7667,20.38,56,1,4.12,AU,1675612911
306,hami,42.8,93.45,-0.94,38,16,0.51,CN,1675612912
307,pisco,-13.7,-76.2167,23.9,88,20,3.6,PE,1675612660
308,lorengau,-2.0226,147.2712,27.05,80,100,1.18,PG,1675612912
309,arrecife,28.963,-13.5477,17.99,68,20,3.6,ES,1675612913
310,honningsvag,70.9821,25.9704,-3.14,93,75,11.32,NO,1675612913
311,conselheiro lafaiete,-20.6603,-43.7861,27.25,60,9,4.14,BR,1675612913
312,qarqin,37.4185,66.0436,10.64,48,100,4.76,AF,1675612914
313,vestmanna,62.1564,-7.1664,6.51,93,100,11.32,FO,1675612914
314,barcelona,41.3888,2.159,17.63,51,0,4.63,ES,1675612915
315,davila,18.4726,120.5763,22.99,77,68,2.48,PH,1675612916
316,taikang,46.8333,124.4167,-20.33,99,9,2.28,CN,1675612916
317,grants pass,42.439,-123.3284,5.82,94,75,3.6,US,1675612917
318,yulara,-25.2406,130.9889,22.2,22,0,4.55,AU,1675612917
319,wegorzewo,54.2157,21.7372,-4.57,83,26,1.68,PL,1675612875
320,le vauclin,14.5452,-60.8388,28.03,69,75,9.26,MQ,1675612917
321,balkanabat,39.5108,54.3671,9.63,51,100,3.75,TM,1675612918
322,alta floresta,-9.8756,-56.0861,26.9,83,20,1.54,BR,1675612919
323,aklavik,68.2191,-135.0107,-44.0,66,0,1.03,CA,1675612919
324,papayal,-4.0761,-80.7361,29.43,53,23,1.64,PE,1675612920
325,lumphat,13.4878,106.9816,24.73,63,71,2.87,KH,1675612920
326,evensk,61.95,159.2333,-26.96,79,26,3.68,RU,1675612920
327,korla,41.7597,86.1469,-1.09,68,100,1.23,CN,1675612921
328,mazatlan,23.2167,-106.4167,22.16,45,0,0.98,MX,1675612791
329,bichura,50.5881,107.6022,-18.55,98,89,1.05,RU,1675612921
330,somerset,40.5668,-74.5496,6.2,52,0,2.06,US,1675612923
331,necochea,-38.5473,-58.7368,30.57,29,38,3.69,AR,1675612924
332,naerbo,58.6667,5.65,6.82,91,100,5.16,NO,1675612928
333,barabai,-2.5833,115.3833,24.0,84,100,0.8,ID,1675612933
334,santa vitoria do palmar,-33.5189,-53.3681,25.91,51,26,5.46,BR,1675612940
335,sudak,44.85,34.9667,3.89,87,100,7.2,UA,1675612851
336,lincolnton,35.4737,-81.2545,7.94,50,0,2.57,US,1675612944
337,osa,57.2829,55.4567,-11.03,97,100,1.47,RU,1675612946
338,santa lucia,27.9117,-15.5407,15.98,55,20,2.57,ES,1675612950
339,donskoye,45.4552,41.9741,-0.93,76,100,4.86,RU,1675612950
340,raudeberg,61.9875,5.1352,6.04,67,72,7.1,NO,1675612951
341,nabinagar,23.8917,90.9733,17.07,40,4,2.21,BD,1675612951
342,jumla,29.2747,82.1838,4.03,60,0,1.77,NP,1675612952
343,baneh,35.9975,45.8853,-0.33,99,100,2.59,IR,1675612952
344,balotra,25.8333,72.2333,21.94,26,0,4.68,IN,1675612953
345,ayan,56.45,138.1667,-21.24,81,99,3.42,RU,1675612953
346,paita,-5.0892,-81.1144,26.58,63,97,2.77,PE,1675612954
347,ilhabela,-23.7781,-45.3581,28.94,74,80,2.43,BR,1675612954
348,phayao,19.25,100.25,23.06,60,84,1.64,TH,1675612954
349,multan,30.1956,71.4753,18.94,59,20,0.0,PK,1675612841
350,brigantine,39.4101,-74.3646,7.86,57,0,5.14,US,1675612775
351,taltal,-25.4,-70.4833,23.52,69,0,2.08,CL,1675612896
352,norman wells,65.282,-126.8329,-33.98,75,40,0.0,CA,1675612955
353,ampanihy,-24.7,44.75,24.7,77,100,3.86,MG,1675612956
354,umm lajj,25.0213,37.2685,20.64,52,18,3.34,SA,1675612956
355,belyy yar,53.6039,91.3903,-23.06,92,29,1.0,RU,1675612956
356,shenjiamen,29.9576,122.298,11.06,91,100,4.65,CN,1675612957
357,boyarka,50.3191,30.2973,-1.59,96,100,4.29,UA,1675612873
358,kaeo,-35.1,173.7833,19.07,94,100,1.88,NZ,1675612957
359,lashio,22.9333,97.75,13.17,41,35,0.68,MM,1675612958
360,gornopravdinsk,60.05,69.9,-18.72,99,100,1.15,RU,1675612958
361,codrington,-38.2667,141.9667,12.94,88,33,2.63,AU,1675612959
362,kindersley,51.4668,-109.1682,-8.99,92,0,5.14,CA,1675612959
363,sola,-13.8833,167.55,28.42,73,100,10.52,VU,1675612960
364,labuhan,-6.8844,112.2051,25.64,85,100,3.13,ID,1675612960
365,khatassy,61.9036,129.6383,-41.01,100,97,1.19,RU,1675612961
366,kailua,21.4022,-157.7394,23.05,86,62,2.24,US,1675612961
367,itarema,-2.9248,-39.9167,29.23,66,82,5.62,BR,1675612961
368,areka,7.0667,37.7,22.64,25,9,3.32,ET,1675612838
369,solikamsk,59.6196,56.7729,-15.7,100,99,1.5,RU,1675612962
370,tuy hoa,13.0833,109.3,21.57,93,86,0.98,VN,1675612962
371,kuryk,43.2,51.65,2.93,64,97,4.78,KZ,1675612963
372,finschhafen,-6.6024,147.8681,26.53,82,100,2.25,PG,1675612963
373,poronaysk,49.2167,143.1167,-23.31,96,90,1.19,RU,1675612666
374,alegrete,-29.7831,-55.7919,31.43,14,40,3.98,BR,1675612963
375,agadez,19.75,10.25,26.24,11,49,5.5,NE,1675612964
376,auki,-8.7676,160.7034,24.8,97,100,6.6,SB,1675612964
377,micheweni,-4.9667,39.8333,26.97,77,12,6.78,TZ,1675612964
378,douentza,14.9951,-2.9517,34.18,8,60,2.78,ML,1675612965
379,shahr-e kord,32.3256,50.8644,0.87,40,0,2.06,IR,1675612966
380,aksaray,38.3726,34.0254,1.26,76,100,4.29,TR,1675612966
381,pevek,69.7008,170.3133,-38.91,100,78,1.28,RU,1675612966
382,floro,61.5996,5.0328,6.65,87,75,2.06,NO,1675612967
383,kropachevo,55.0112,57.9896,-16.3,100,77,0.8,RU,1675612967
384,altamira,-3.2033,-52.2064,30.05,70,75,3.09,BR,1675612951
385,dabra,25.9,78.3333,17.79,39,0,1.42,IN,1675612967
386,malanje,-9.5402,16.341,18.88,89,100,1.48,AO,1675612968
387,hovd,48.0056,91.6419,-15.76,83,8,1.26,MN,1675612968
388,arraial do cabo,-22.9661,-42.0278,31.98,58,0,4.12,BR,1675612968
389,gurjaani,41.7429,45.8011,3.61,45,70,0.63,GE,1675612969
390,cabinda,-5.55,12.2,28.08,83,75,4.63,AO,1675612970
391,abay,49.6311,72.8539,-9.79,97,98,1.55,KZ,1675612970
392,amudat,1.95,34.95,28.03,23,37,8.23,UG,1675612970
393,marsh harbour,26.5412,-77.0636,23.71,75,78,10.28,BS,1675612971
394,tiznit,29.5833,-9.5,17.28,22,58,4.21,MA,1675612971
395,guerrero negro,27.9769,-114.0611,15.4,78,0,4.5,MX,1675612972
396,surubim,-7.8331,-35.7547,33.34,34,58,5.73,BR,1675612973
397,marawi,7.9986,124.2928,19.35,94,99,0.58,PH,1675612973
398,tabuk,17.4189,121.4443,21.71,90,55,1.11,PH,1675612811
399,butembo,0.15,29.2833,20.72,45,96,1.41,CD,1675612974
400,sur,22.5667,59.5289,22.28,73,42,3.18,OM,1675612974
401,trojes,41.756,19.962,1.27,52,4,5.47,AL,1675612974
402,kimberley,-28.7323,24.7623,25.83,44,40,6.17,ZA,1675612837
403,bar harbor,44.3876,-68.2039,1.62,72,75,0.0,US,1675612728
404,sapele,5.8941,5.6767,34.66,39,89,1.74,NG,1675612975
405,la libertad,-2.2333,-80.9,27.81,74,75,5.14,EC,1675612975
406,kasongo,-4.45,26.6667,24.93,80,97,1.03,CD,1675612976
407,badarwas,24.9667,77.5667,18.83,34,0,2.05,IN,1675612976
408,santa maria da vitoria,-13.3947,-44.1886,32.69,44,7,1.34,BR,1675612977
409,feltre,46.0235,11.907,5.33,79,98,0.45,IT,1675612977
410,arroio grande,-32.2375,-53.0869,24.99,69,87,5.58,BR,1675612750
411,trencin,48.8333,18.25,-2.02,67,18,2.59,SK,1675612977
412,constitucion,-35.3333,-72.4167,21.1,69,49,3.51,CL,1675612978
413,bandarbeyla,9.4942,50.8122,24.6,72,59,7.43,SO,1675612978
414,kavieng,-2.5744,150.7967,27.59,73,100,1.05,PG,1675612978
415,sabang,5.8933,95.3214,27.5,70,96,2.4,ID,1675612979
416,mporokoso,-9.3727,30.125,18.87,92,96,1.37,ZM,1675612979
417,vanimo,-2.6741,141.3028,25.87,86,100,1.66,PG,1675612979
418,khandagayty,50.7333,92.05,-18.25,98,100,0.76,RU,1675612980
419,bismil,37.8486,40.6658,4.06,94,100,4.57,TR,1675612980
420,sambava,-14.2667,50.1667,25.38,89,100,3.84,MG,1675612981
421,canberra,-35.2835,149.1281,15.25,90,100,2.57,AU,1675612981
422,dzhebariki-khaya,62.2167,135.8,-34.96,100,99,0.1,RU,1675612983
423,praia da vitoria,38.7333,-27.0667,18.2,77,20,7.25,PT,1675612984
424,vestmannaeyjar,63.4427,-20.2734,8.55,100,100,14.4,IS,1675612986
425,upata,8.0086,-62.3989,28.44,47,80,4.98,VE,1675612988
426,san vicente,-26.6167,-54.1333,29.66,27,99,2.19,AR,1675612990
427,george town,5.4112,100.3354,24.99,94,40,1.54,MY,1675612991
428,thai binh,20.45,106.3333,19.08,95,99,4.62,VN,1675612995
429,remedios,22.4947,-79.5458,28.51,59,1,4.27,CU,1675612996
430,kambove,-10.8764,26.5969,18.85,95,80,1.54,CD,1675612998
431,asfi,32.2994,-9.2372,15.39,55,12,4.13,MA,1675612998
432,hay river,60.8156,-115.7999,-18.01,78,100,6.17,CA,1675612837
433,hobyo,5.3505,48.5268,24.93,78,89,8.5,SO,1675613000
434,coihaique,-45.5752,-72.0662,22.34,35,20,5.66,CL,1675613002
435,neuquen,-38.9516,-68.0591,33.94,20,0,4.63,AR,1675613003
436,fuerte olimpo,-21.0415,-57.8738,33.79,43,41,0.92,PY,1675613004
437,wenling,28.3669,121.36,10.72,92,100,3.41,CN,1675613006
438,foix,42.8333,1.5833,7.51,82,13,2.3,FR,1675613008
439,dapaong,10.8639,0.205,36.8,8,94,2.81,TG,1675613008
440,taoudenni,22.6783,-3.9836,23.56,15,27,5.32,ML,1675613009
441,ahipara,-35.1667,173.1667,17.7,91,99,3.19,NZ,1675613011
442,hambantota,6.1241,81.1185,26.19,89,40,3.09,LK,1675613011
443,rio gallegos,-51.6226,-69.2181,14.03,26,20,19.03,AR,1675613012
444,olga,43.7444,135.2892,-9.96,90,11,2.9,RU,1675613012
445,lebyazhye,55.2689,66.4947,-17.3,97,99,3.03,RU,1675613013
446,roma,43.2128,-75.4557,2.99,53,20,3.6,US,1675613013
447,nurpur,29.15,78.4167,15.32,49,0,3.49,IN,1675613013
448,road town,18.4167,-64.6167,28.05,69,40,7.72,VG,1675613014
449,maurawan,26.4333,80.8833,17.02,48,0,2.24,IN,1675613014
450,chicama,-7.8447,-79.1469,23.3,56,29,3.92,PE,1675613014
451,buala,-8.145,159.5921,24.94,96,100,5.24,SB,1675613015
452,chipata,-13.6333,32.65,19.52,90,97,1.67,ZM,1675613015
453,prieska,-29.6641,22.7474,30.67,32,84,7.32,ZA,1675613015
454,kruisfontein,-34.0033,24.7314,26.05,69,7,8.31,ZA,1675613016
455,huilong,31.8111,121.655,7.18,87,100,3.55,CN,1675613016
456,iquitos,-3.7481,-73.2472,24.02,94,100,7.2,PE,1675613016
457,valkla,59.4744,25.3186,-0.75,80,100,8.38,EE,1675613017
458,gongzhuling,43.5008,124.8198,-12.96,95,27,1.88,CN,1675613017
459,zafra,38.4167,-6.4167,14.97,40,2,3.39,ES,1675613018
460,santa cruz,-17.8,-63.1667,26.7,83,75,6.17,BO,1675613018
461,vorobyevka,50.6451,40.9245,-7.54,94,90,2.93,RU,1675613018
462,provideniya,64.3833,-173.3,-17.32,96,99,4.33,RU,1675613019
463,ondjiva,-17.0667,15.7333,32.02,20,40,2.57,AO,1675613019
464,ugoofaaru,5.6667,73.0,27.3,75,100,2.56,MV,1675613020
465,ylivieska,64.0833,24.55,-0.94,97,100,2.65,FI,1675613020
466,saint-pierre,-21.3393,55.4781,27.82,69,0,7.2,RE,1675612839
467,hastings,50.8552,0.5729,9.05,19,100,5.92,GB,1675613021
468,dauriya,49.9333,116.8667,-27.8,100,95,1.23,RU,1675613021
469,arona,28.0996,-16.681,16.29,47,40,3.6,ES,1675613022
470,bilma,18.6853,12.9164,28.36,12,42,5.43,NE,1675613022
471,kabale,-1.2486,29.9899,19.33,58,62,0.54,UG,1675613022
472,lakselv,70.0513,24.9718,-9.1,79,75,11.83,NO,1675613023
473,culpeper,38.5004,-77.9664,8.62,44,0,3.09,US,1675613023
474,kudahuvadhoo,2.6708,72.8944,26.91,72,67,0.59,MV,1675613024
475,san fernando,15.0286,120.6898,24.85,83,77,2.18,PH,1675613024
476,norwich,52.6278,1.2983,7.98,79,20,4.12,GB,1675612971
477,guadalupe y calvo,26.1,-106.9667,12.19,28,0,1.67,MX,1675613024
478,beipiao,41.7919,120.7792,-4.81,47,81,1.94,CN,1675613025
479,liverpool,53.4106,-2.9779,7.84,64,0,2.06,GB,1675612745
480,pascagoula,30.3658,-88.5561,17.45,65,0,2.57,US,1675612730
481,urumqi,43.801,87.6005,-9.47,86,75,1.0,CN,1675613025
482,sangar,63.9242,127.4739,-40.25,99,99,1.67,RU,1675613025
483,rocha,-34.4833,-54.3333,25.55,51,36,3.89,UY,1675613026
484,valdivia,-39.8142,-73.2459,24.05,43,10,1.1,CL,1675612931
485,ormara,25.2088,64.6357,22.4,76,0,9.33,PK,1675613026
486,port hardy,50.6996,-127.4199,5.1,100,75,2.06,CA,1675612837
487,karlshamn,56.1706,14.8619,0.27,69,100,4.07,SE,1675613027
488,mizdah,31.4451,12.9801,12.26,63,45,8.02,LY,1675613027
489,bathsheba,13.2167,-59.5167,29.34,61,40,11.83,BB,1675613028
490,volkhovskiy,58.58,31.3164,-9.62,97,100,1.93,RU,1675613028
491,monrovia,6.3005,-10.7969,28.87,74,81,5.48,LR,1675612807
492,tura,25.5198,90.2201,15.68,44,0,1.12,IN,1675613028
493,inta,66.0317,60.1659,-12.91,96,97,3.49,RU,1675613029
494,sungairaya,0.7,108.9,24.98,90,100,1.77,ID,1675613029
495,dondo,-19.6094,34.7431,30.73,68,15,3.0,MZ,1675613030
496,zhuhai,22.2769,113.5678,18.88,88,40,1.03,CN,1675612823
497,bosobolo,4.1833,19.9,36.38,13,74,2.1,CD,1675613030
498,nerchinskiy zavod,51.3088,119.61,-33.7,100,64,1.21,RU,1675613031
499,kathmandu,27.7167,85.3167,12.12,71,20,1.54,NP,1675613012
500,margate,51.3813,1.3862,7.72,75,100,3.58,GB,1675613031
501,caravelas,-17.7125,-39.2481,30.96,57,1,5.99,BR,1675613031
502,itapetinga,-15.2489,-40.2478,33.45,43,0,1.26,BR,1675613032
503,kahului,20.8947,-156.47,23.25,87,40,6.69,US,1675613032
504,touros,-5.1989,-35.4608,30.29,60,76,5.7,BR,1675613033
505,amot,59.5714,7.9877,-6.3,93,97,2.15,NO,1675613033
506,pyshma,56.9523,63.2513,-15.84,100,98,0.68,RU,1675613034
507,burns lake,54.2331,-125.7533,-3.32,99,81,1.74,CA,1675612837
508,la quinta,33.6634,-116.31,18.62,41,1,2.83,US,1675613034
509,nizhniy odes,63.6445,54.856,-16.48,99,98,0.97,RU,1675613034
510,abu samrah,35.3029,37.1841,5.96,92,100,3.68,SY,1675613035
511,orotukan,62.2667,151.7,-29.91,100,100,0.57,RU,1675613035
512,rio branco do sul,-25.19,-49.3142,26.8,62,58,3.08,BR,1675613035
513,rjukan,59.8789,8.5941,-3.64,87,77,3.02,NO,1675613036
514,yerbogachen,61.2767,108.0108,-28.47,100,97,0.94,RU,1675613036
515,yumbing,9.2393,124.6578,25.94,84,63,4.89,PH,1675613036
516,pellerd,46.0344,18.154,0.47,55,40,4.63,HU,1675613037
517,bobo dioulasso,11.1771,-4.2979,36.25,9,8,4.12,BF,1675613037
518,ayni,39.3941,68.5377,-1.01,88,100,1.64,TJ,1675613038
519,mahibadhoo,3.7833,72.9667,27.54,72,100,2.31,MV,1675612922
520,buchanan,5.8808,-10.0467,28.82,71,99,4.7,LR,1675613038
521,mackenzie,55.2999,-123.1698,2.12,87,100,4.12,CA,1675612836
522,yumen,40.2833,97.2,-3.25,41,0,4.06,CN,1675613038
523,leshukonskoye,64.8989,45.7622,-19.44,100,97,1.96,RU,1675613039
524,krasnoselkup,65.7,82.4667,-17.08,98,93,2.71,RU,1675613040
525,chaplygin,53.2432,39.9629,-6.78,97,76,1.69,RU,1675613040
526,kuytun,54.3419,101.5036,-22.51,100,95,0.88,RU,1675613040
527,port lincoln,-34.7333,135.8667,16.53,82,0,5.28,AU,1675612837
528,inhapi,-9.2214,-37.7486,35.32,26,7,4.23,BR,1675613041
529,havoysund,70.9963,24.6622,-1.87,96,100,16.6,NO,1675613041
530,puksoozero,62.5903,40.6066,-16.15,99,57,2.16,RU,1675613042
531,trinidad,-14.8333,-64.9,23.99,94,100,0.0,BO,1675613042
532,hamamatsu,34.7,137.7333,6.43,53,2,3.2,JP,1675612955
533,bonavista,48.6499,-53.1147,-5.31,68,67,8.84,CA,1675613046
534,vitoria da conquista,-14.8661,-40.8394,29.33,44,0,1.14,BR,1675613048
535,yangambi,0.8102,24.4336,32.43,27,18,0.66,CD,1675613049
536,veraval,20.9,70.3667,22.21,59,2,4.92,IN,1675613050
537,churapcha,62.0025,132.4325,-33.92,99,99,1.65,RU,1675613052
538,saint-joseph,-21.3667,55.6167,27.21,85,84,4.56,RE,1675613053
539,broken hill,-31.95,141.4333,21.54,33,0,3.98,AU,1675613054
540,khani,41.9563,42.9566,3.76,64,100,2.25,GE,1675613056
541,tarko-sale,64.9225,77.785,-22.93,100,94,2.27,RU,1675613059
542,wangqing,43.3218,129.7634,-13.6,95,62,1.35,CN,1675613062
543,kilindoni,-7.9139,39.6668,27.81,75,20,6.22,TZ,1675613063
544,brits,-25.6347,27.7802,28.99,38,55,1.85,ZA,1675613065
545,sawakin,19.1059,37.3321,23.76,64,86,3.39,SD,1675613066
546,yaan,7.3833,8.5667,38.77,9,48,3.66,NG,1675613069
547,mazara del vallo,37.6641,12.588,9.41,60,2,6.31,IT,1675613071
548,shupiyan,33.7167,74.8333,-0.47,75,100,1.99,IN,1675613072
549,abeche,13.8292,20.8324,30.86,8,67,4.64,TD,1675613072
550,uvat,59.1433,68.8953,-17.67,100,100,1.34,RU,1675613073
551,jeremie,18.65,-74.1167,27.59,61,0,2.26,HT,1675613073
552,sakakah,29.9697,40.2064,16.76,30,97,3.04,SA,1675612835
553,mount isa,-20.7333,139.5,24.87,100,100,0.51,AU,1675612901
554,kirkuk,35.4681,44.3922,10.51,57,90,4.82,IQ,1675612835
555,guiuan,11.0333,125.7247,26.87,82,78,8.23,PH,1675613074
556,shingu,33.7333,135.9833,4.17,66,24,2.76,JP,1675613074
557,chernyshevskiy,63.0128,112.4714,-46.11,100,60,0.09,RU,1675613075
558,porto-vecchio,41.591,9.2795,11.81,71,100,5.66,FR,1675613075
559,daru,-9.0763,143.2092,24.92,91,100,1.83,PG,1675613075
560,mahon,39.8885,4.2658,12.31,71,40,11.32,ES,1675613052
561,tocache,-8.1842,-76.5125,28.43,64,72,0.28,PE,1675613076
562,tilichiki,60.4667,166.1,-29.96,94,10,3.78,RU,1675613076
563,ponta delgada,37.7333,-25.6667,17.4,77,20,4.12,PT,1675612852
564,haines junction,60.7522,-137.5108,-12.03,85,97,0.0,CA,1675613076
565,nuuk,64.1835,-51.7216,-10.66,85,75,3.6,GL,1675613077
566,san cristobal,7.7669,-72.225,27.1,58,51,3.75,VE,1675613077
567,dombarovskiy,50.7587,59.5386,-20.78,100,53,2.11,RU,1675613077
568,aswan,24.0934,32.907,23.61,20,0,3.09,EG,1675613078
569,bhawana,31.5692,72.649,17.99,26,70,2.96,PK,1675613078
570,ukiah,39.1502,-123.2078,8.58,92,100,3.09,US,1675613079
571,obo,5.3998,26.4869,33.6,12,79,2.95,CF,1675613079
572,berbera,10.4396,45.0143,24.7,66,95,3.84,SO,1675613080
573,pemangkat,1.1667,108.9667,25.07,88,99,2.46,ID,1675613080
574,sechura,-5.5569,-80.8222,27.82,55,87,2.17,PE,1675613080
